$GPRMC,135400.000,A,5304.9435,N,00853.7558,E,29.30,272.91,050908,,,A*56
$GPGGA,135401.000,5304.9438,N,00853.7426,E,1,07,1.1,6.0,M,46.4,M,,0000*54
$GPGSA,A,3,30,12,31,14,02,29,09,,,,,,2.1,1.1,1.8*3F
$GPRMC,135401.000,A,5304.9438,N,00853.7426,E,28.22,271.69,050908,,,A*54
$GPGGA,135402.000,5304.9441,N,00853.7296,E,1,07,1.1,5.7,M,46.4,M,,0000*50
$GPGSA,A,3,30,12,31,14,02,29,09,,,,,,2.1,1.1,1.8*3F
$GPRMC,135402.000,A,5304.9441,N,00853.7296,E,27.66,270.26,050908,,,A*51
$GPGGA,135403.000,5304.9447,N,00853.7164,E,1,07,1.1,4.6,M,46.4,M,,0000*59
$GPGSA,A,3,30,12,31,14,02,29,09,,,,,,2.1,1.1,1.8*3F
$GPRMC,135403.000,A,5304.9447,N,00853.7164,E,28.89,272.47,050908,,,A*53
$GPGGA,135404.000,5304.9451,N,00853.7025,E,1,07,1.1,4.8,M,46.4,M,,0000*53
$GPGSA,A,3,30,12,31,14,02,29,09,,,,,,2.1,1.1,1.8*3F
$GPGSV,3,1,11,30,77,282,37,12,53,088,36,06,49,208,,29,47,206,32*78
$GPGSV,3,2,11,02,35,087,28,14,31,249,29,31,25,308,23,04,21,044,27*77
$GPGSV,3,3,11,09,17,149,23,20,01,339,,32,01,319,*4A
$GPRMC,135404.000,A,5304.9451,N,00853.7025,E,29.58,272.32,050908,,,A*58
$GPGGA,135405.000,5304.9458,N,00853.6880,E,1,07,1.1,4.6,M,46.4,M,,0000*53
$GPGSA,A,3,30,12,31,14,02,29,09,,,,,,2.1,1.1,1.8*3F
$GPRMC,135405.000,A,5304.9458,N,00853.6880,E,30.16,272.46,050908,,,A*57
$GPGGA,135406.000,5304.9464,N,00853.6738,E,1,07,1.1,5.1,M,46.4,M,,0000*55
$GPGSA,A,3,30,12,31,14,02,29,09,,,,,,2.1,1.1,1.8*3F
$GPRMC,135406.000,A,5304.9464,N,00853.6738,E,30.31,272.64,050908,,,A*52
$GPGGA,135407.000,5304.9467,N,00853.6597,E,1,07,1.1,5.6,M,46.4,M,,0000*57
$GPGSA,A,3,30,12,31,14,02,29,09,,,,,,2.1,1.1,1.8*3F
$GPRMC,135407.000,A,5304.9467,N,00853.6597,E,30.34,271.81,050908,,,A*5A
$GPGGA,135408.000,5304.9472,N,00853.6454,E,1,07,1.1,6.0,M,46.4,M,,0000*57
$GPGSA,A,3,30,12,31,14,02,29,09,,,,,,2.1,1.1,1.8*3F
$GPRMC,135408.000,A,5304.9472,N,00853.6454,E,30.40,271.51,050908,,,A*51
$GPGGA,135409.000,5304.9480,N,00853.6309,E,1,07,1.1,7.1,M,46.4,M,,0000*54
$GPGSA,A,3,30,12,31,14,02,29,09,,,,,,2.1,1.1,1.8*3F
$GPGSV,3,1,11,30,77,282,37,12,53,088,39,06,49,208,,29,47,206,32*77
$GPGSV,3,2,11,02,35,087,35,14,31,249,29,31,25,308,23,04,21,044,27*7B
$GPGSV,3,3,11,09,17,149,24,20,01,339,,32,01,319,*4D
$GPRMC,135409.000,A,5304.9480,N,00853.6309,E,30.47,272.52,050908,,,A*55
$GPGGA,135410.000,5304.9486,N,00853.6168,E,1,07,1.1,7.1,M,46.4,M,,0000*5F
$GPGSA,A,3,30,12,31,14,02,29,09,,,,,,2.1,1.1,1.8*3F
$GPRMC,135410.000,A,5304.9486,N,00853.6168,E,30.27,272.59,050908,,,A*53
$GPGGA,135411.000,5304.9493,N,00853.6027,E,1,07,1.1,6.7,M,46.4,M,,0000*57
$GPGSA,A,3,30,12,31,14,02,29,09,,,,,,2.1,1.1,1.8*3F
$GPRMC,135411.000,A,5304.9493,N,00853.6027,E,29.87,273.07,050908,,,A*54
$GPGGA,135412.000,5304.9501,N,00853.5889,E,1,07,1.1,6.2,M,46.4,M,,0000*54
$GPGSA,A,3,30,12,31,14,02,29,09,,,,,,2.1,1.1,1.8*3F
$GPRMC,135412.000,A,5304.9501,N,00853.5889,E,29.06,273.04,050908,,,A*58
$GPGGA,135413.000,5304.9509,N,00853.5755,E,1,07,1.1,5.7,M,46.4,M,,0000*55
$GPGSA,A,3,30,12,31,14,02,29,09,,,,,,2.1,1.1,1.8*3F
$GPRMC,135413.000,A,5304.9509,N,00853.5755,E,28.14,273.45,050908,,,A*58
$GPGGA,135414.000,5304.9515,N,00853.5626,E,1,07,1.1,5.3,M,46.4,M,,0000*5E
$GPGSA,A,3,30,12,31,14,02,29,09,,,,,,2.1,1.1,1.8*3F
$GPGSV,3,1,11,30,77,282,36,12,53,088,40,06,49,208,,29,47,206,33*79
$GPGSV,3,2,11,02,35,087,36,14,31,249,29,31,25,308,32,04,21,044,32*7C
$GPGSV,3,3,11,09,17,149,24,20,01,339,,32,01,319,*4D
$GPRMC,135414.000,A,5304.9515,N,00853.5626,E,27.20,273.03,050908,,,A*5D
$GPGGA,135415.000,5304.9519,N,00853.5503,E,1,06,1.4,5.3,M,46.4,M,,0000*53
$GPGSA,A,3,30,12,31,14,02,29,,,,,,,2.8,1.4,2.5*34
$GPRMC,135415.000,A,5304.9519,N,00853.5503,E,26.33,272.96,050908,,,A*5A
$GPGGA,135416.000,5304.9523,N,00853.5383,E,1,06,1.4,5.1,M,46.4,M,,0000*55
$GPGSA,A,3,30,12,31,14,02,29,,,,,,,2.8,1.4,2.5*34
$GPRMC,135416.000,A,5304.9523,N,00853.5383,E,25.61,272.94,050908,,,A*58
$GPGGA,135417.000,5304.9529,N,00853.5263,E,1,06,1.4,4.6,M,46.4,M,,0000*57
$GPGSA,A,3,30,12,31,14,02,29,,,,,,,2.8,1.4,2.5*34
$GPRMC,135417.000,A,5304.9529,N,00853.5263,E,25.58,273.15,050908,,,A*5E
$GPGGA,135418.000,5304.9536,N,00853.5144,E,1,06,1.4,4.3,M,46.4,M,,0000*55
$GPGSA,A,3,30,12,31,14,02,29,,,,,,,2.8,1.4,2.5*34
$GPRMC,135418.000,A,5304.9536,N,00853.5144,E,25.69,274.44,050908,,,A*58
$GPGGA,135419.000,5304.9542,N,00853.5024,E,1,06,1.4,4.5,M,46.4,M,,0000*56
$GPGSA,A,3,30,12,31,14,02,29,,,,,,,2.8,1.4,2.5*34
$GPGSV,3,1,11,30,78,282,36,12,53,088,40,06,49,208,,29,47,206,34*71
$GPGSV,3,2,11,02,35,087,38,14,31,249,23,31,25,308,26,04,20,044,34*7A
$GPGSV,3,3,11,09,17,149,,20,01,339,,32,01,319,*4B
$GPRMC,135419.000,A,5304.9542,N,00853.5024,E,25.98,274.00,050908,,,A*53
$GPGGA,135420.000,5304.9549,N,00853.4902,E,1,07,1.1,4.3,M,46.4,M,,0000*59
$GPGSA,A,3,30,12,31,14,02,29,09,,,,,,2.1,1.1,1.8*3F
$GPRMC,135420.000,A,5304.9549,N,00853.4902,E,26.69,274.02,050908,,,A*51
$GPGGA,135421.000,5304.9556,N,00853.4780,E,1,07,1.1,4.2,M,46.4,M,,0000*53
$GPGSA,A,3,30,12,31,14,02,29,09,,,,,,2.1,1.1,1.8*3F
$GPRMC,135421.000,A,5304.9556,N,00853.4780,E,26.12,275.29,050908,,,A*5E
$GPGGA,135422.000,5304.9568,N,00853.4665,E,1,07,1.1,3.7,M,46.4,M,,0000*55
$GPGSA,A,3,30,12,31,14,02,29,09,,,,,,2.1,1.1,1.8*3F
$GPRMC,135422.000,A,5304.9568,N,00853.4665,E,24.57,274.82,050908,,,A*59
$GPGGA,135423.000,5304.9574,N,00853.4553,E,6,00,50.0,3.7,M,46.4,M,,0000*6A
$GPGSA,A,2,,,,,,,,,,,,,50.0,50.0,50.0*06
$GPRMC,135423.000,V,5304.9574,N,00853.4553,E,24.57,274.82,050908,,,E*40
$GPGGA,135424.000,5304.9576,N,00853.4449,E,1,04,2.7,3.5,M,46.4,M,,0000*54
$GPGSA,A,3,30,12,02,29,,,,,,,,,2.9,2.7,1.0*34
$GPGSV,3,1,11,30,78,282,32,12,53,088,36,06,49,208,,29,47,206,34*74
$GPGSV,3,2,11,02,35,087,34,14,31,249,30,31,25,308,,04,20,044,21*74
$GPGSV,3,3,11,09,17,149,22,20,01,339,,32,01,319,*4B
$GPRMC,135424.000,A,5304.9576,N,00853.4449,E,22.45,272.96,050908,,,A*5A
$GPGGA,135425.000,5304.9581,N,00853.4349,E,1,07,1.1,3.4,M,46.4,M,,0000*5D
$GPGSA,A,3,30,12,31,14,02,29,09,,,,,,2.1,1.1,1.8*3F
$GPRMC,135425.000,A,5304.9581,N,00853.4349,E,21.06,274.47,050908,,,A*5A
$GPGGA,135426.000,5304.9588,N,00853.4256,E,1,07,1.1,3.1,M,46.4,M,,0000*5D
$GPGSA,A,3,30,12,31,14,02,29,09,,,,,,2.1,1.1,1.8*3F
$GPRMC,135426.000,A,5304.9588,N,00853.4256,E,20.12,278.76,050908,,,A*55
$GPGGA,135427.000,5304.9601,N,00853.4171,E,1,07,1.1,2.7,M,46.4,M,,0000*5F
$GPGSA,A,3,30,12,31,14,02,29,09,,,,,,2.1,1.1,1.8*3F
$GPRMC,135427.000,A,5304.9601,N,00853.4171,E,18.25,285.29,050908,,,A*57
$GPGGA,135428.000,5304.9620,N,00853.4095,E,1,07,1.1,2.2,M,46.4,M,,0000*5D
$GPGSA,A,3,30,12,31,14,02,29,09,,,,,,2.1,1.1,1.8*3F
$GPRMC,135428.000,A,5304.9620,N,00853.4095,E,17.42,295.47,050908,,,A*57
$GPGGA,135429.000,5304.9648,N,00853.4030,E,1,07,1.1,1.8,M,46.4,M,,0000*54
$GPGSA,A,3,30,12,31,14,02,29,09,,,,,,2.1,1.1,1.8*3F
$GPGSV,3,1,11,30,78,282,35,12,53,088,33,06,49,208,,29,47,206,36*74
$GPGSV,3,2,11,02,35,087,32,14,31,249,24,31,25,308,29,04,20,044,38*74
$GPGSV,3,3,11,09,17,149,25,20,01,339,,32,01,319,*4C
$GPRMC,135429.000,A,5304.9648,N,00853.4030,E,16.66,307.27,050908,,,A*5C
$GPGGA,135430.000,5304.9682,N,00853.3979,E,1,07,1.1,2.0,M,46.4,M,,0000*52
$GPGSA,A,3,30,12,31,14,02,29,09,,,,,,2.1,1.1,1.8*3F
$GPRMC,135430.000,A,5304.9682,N,00853.3979,E,16.12,320.89,050908,,,A*53
$GPGGA,135431.000,5304.9723,N,00853.3944,E,1,07,1.1,2.2,M,46.4,M,,0000*55
$GPGSA,A,3,30,12,31,14,02,29,09,,,,,,2.1,1.1,1.8*3F
$GPRMC,135431.000,A,5304.9723,N,00853.3944,E,16.04,333.71,050908,,,A*54
$GPGGA,135432.000,5304.9767,N,00853.3922,E,1,07,1.1,3.4,M,46.4,M,,0000*51
$GPGSA,A,3,30,12,31,14,02,29,09,,,,,,2.1,1.1,1.8*3F
$GPRMC,135432.000,A,5304.9767,N,00853.3922,E,15.02,343.70,050908,,,A*54
$GPGGA,135433.000,5304.9810,N,00853.3912,E,1,07,1.1,3.2,M,46.4,M,,0000*5A
$GPGSA,A,3,30,12,31,14,02,29,09,,,,,,2.1,1.1,1.8*3F
$GPRMC,135433.000,A,5304.9810,N,00853.3912,E,14.78,353.60,050908,,,A*55
$GPGGA,135434.000,5304.9851,N,00853.3918,E,1,07,1.1,3.1,M,46.4,M,,0000*51
$GPGSA,A,3,30,12,31,14,02,29,09,,,,,,2.1,1.1,1.8*3F
$GPGSV,3,1,11,30,78,282,29,12,53,088,41,06,49,208,,29,47,206,37*7D
$GPGSV,3,2,11,02,35,087,34,14,31,249,24,31,25,308,35,04,20,044,32*75
$GPGSV,3,3,11,09,17,149,34,20,01,339,,32,01,319,*4C
$GPRMC,135434.000,A,5304.9851,N,00853.3918,E,14.55,5.82,050908,,,A*5E
$GPGGA,135435.000,5304.9892,N,00853.3936,E,1,07,1.1,3.4,M,46.4,M,,0000*56
$GPGSA,A,3,30,12,31,14,02,29,09,,,,,,2.1,1.1,1.8*3F
$GPRMC,135435.000,A,5304.9892,N,00853.3936,E,14.98,16.14,050908,,,A*60
$GPGGA,135436.000,5304.9932,N,00853.3965,E,1,07,1.1,3.7,M,46.4,M,,0000*5B
$GPGSA,A,3,30,12,31,14,02,29,09,,,,,,2.1,1.1,1.8*3F
$GPRMC,135436.000,A,5304.9932,N,00853.3965,E,15.23,25.84,050908,,,A*66
$GPGGA,135437.000,5304.9969,N,00853.4006,E,1,07,1.1,4.1,M,46.4,M,,0000*5E
$GPGSA,A,3,30,12,31,14,02,29,09,,,,,,2.1,1.1,1.8*3F
$GPRMC,135437.000,A,5304.9969,N,00853.4006,E,15.33,37.12,050908,,,A*6F

