,,*69
$GPGSA,A,3,,,07,08,10,,,25,28,,,,3.6,2.3,2.7*30
$GPGSV,3,1,11,03,11,041,00,06,00,034,00,07,57,059,45,08,56,335,51*7E
$GPGSV,3,2,11,10,19,284,40,11,11,122,00,13,40,153,38,25,44,084,33*7B
$GPGSV,3,3,11,28,54,255,47,43,00,000,00,44,00,000,00*44
$PGRME,7.6,M,12.0,M,14.2,M*2B
$GPRMC,015016.2,A,3414.45645,N,11831.77474,W,000.05,268.0,210509,013.6,E,A*2D
$GPGGA,015016.2,3414.45645,N,11831.77474,W,1,05,2.3,246.9,M,-31.7,M,,*63
$GPGSA,A,3,,,07,08,10,,,25,28,,,,3.6,2.3,2.7*30
$GPGSV,3,1,11,03,11,041,00,06,00,034,00,07,57,059,45,08,56,335,51*7E
$GPGSV,3,2,11,10,19,284,40,11,11,122,00,13,40,153,37,25,44,084,33*74
$GPGSV,3,3,11,28,54,255,47,43,00,000,00,44,00,000,00*44
$PGRME,7.6,M,12.0,M,14.2,M*2B
$GPRMC,015016.4,A,3414.45645,N,11831.77474,W,000.03,268.0,210509,013.6,E,A*2D
$GPGGA,015016.4,3414.45645,N,11831.77474,W,1,05,2.3,246.8,M,-31.7,M,,*64
$GPGSA,A,3,,,07,08,10,,,25,28,,,,3.6,2.3,2.7*30
$GPGSV,3,1,11,03,11,041,00,06,00,034,00,07,57,059,45,08,56,335,51*7E
$GPGSV,3,2,11,10,19,284,40,11,11,122,00,13,40,153,37,25,44,084,33*74
$GPGSV,3,3,11,28,54,255,47,43,00,000,00,44,00,000,00*44
$PGRME,7.6,M,12.0,M,14.2,M*2B
$GPRMC,015016.6,A,3414.45645,N,11831.77474,W,000.04,268.0,210509,013.6,E,A*28
$GPGGA,015016.6,3414.45645,N,11831.77474,W,1,05,2.3,246.7,M,-31.7,M,,*69
$GPGSA,A,3,,,07,08,10,,,25,28,,,,3.6,2.3,2.7*30
$GPGSV,3,1,11,03,11,041,00,06,00,034,00,07,57,059,45,08,56,335,51*7E
$GPGSV,3,2,11,10,19,284,40,11,11,122,00,13,40,153,36,25,44,084,33*75
$GPGSV,3,3,11,28,54,255,47,43,00,000,00,44,00,000,00*44
$PGRME,7.6,M,12.0,M,14.2,M*2B
$GPRMC,015016.8,A,3414.45645,N,11831.77474,W,000.01,268.0,210509,013.6,E,A*23
$GPGGA,015016.8,3414.45645,N,11831.77474,W,1,05,2.3,246.5,M,-31.7,M,,*65
$GPGSA,A,3,,,07,08,10,,,25,28,,,,3.6,2.3,2.7*30
$GPGSV,3,1,11,03,11,041,00,06,00,034,00,07,57,059,45,08,56,335,51*7E
$GPGSV,3,2,11,10,19,284,40,11,11,122,00,13,40,153,36,25,44,084,31*77
$GPGSV,3,3,11,28,54,255,47,43,00,000,00,44,00,000,00*44
$PGRME,7.6,M,12.0,M,14.2,M*2B
$GPRMC,015017.0,A,3414.45645,N,11831.77474,W,000.04,268.0,210509,013.6,E,A*2F
$GPGGA,015017.2,3414.45645,N,11831.77474,W,1,05,2.3,246.4,M,-31.7,M,,*6F
$GPGSA,A,3,,,07,08,10,,,25,28,,,,3.6,2.3,2.7*30
$GPGSV,3,1,11,03,11,041,00,06,00,034,00,07,57,059,45,08,56,335,51*7E
$GPGSV,3,2,11,10,19,284,40,11,11,122,00,13,40,153,39,25,44,084,31*78
$GPGSV,3,3,11,28,54,255,47,43,00,000,00,44,00,000,00*44
$PGRME,7.6,M,12.0,M,14.2,M*2B
$GPRMC,015017.2,A,3414.45645,N,11831.77474,W,000.08,268.0,210509,013.6,E,A*21
$GPGGA,015017.4,3414.45645,N,11831.77474,W,1,05,2.3,246.4,M,-31.7,M,,*69
$GPGSA,A,3,,,07,08,10,,,25,28,,,,3.6,2.3,2.7*30
$GPGSV,3,1,11,03,11,041,00,06,00,034,00,07,57,059,45,08,56,335,51*7E
$GPGSV,3,2,11,10,19,284,40,11,11,122,00,13,40,153,39,25,44,084,31*78
$GPGSV,3,3,11,28,54,255,47,43,00,000,00,44,00,000,00*44
$PGRME,7.5,M,11.7,M,13.9,M*20
$GPRMC,015017.6,A,3414.45645,N,11831.77475,W,000.07,268.0,210509,013.6,E,A*2B
$GPGGA,015017.6,3414.45645,N,11831.77475,W,1,05,2.3,246.3,M,-31.7,M,,*6D
$GPGSA,A,3,,,07,08,10,,,25,28,,,,3.6,2.3,2.7*30
$GPGSV,3,1,11,03,11,041,00,06,00,034,00,07,57,059,45,08,56,335,51*7E
$GPGSV,3,2,11,10,19,284,40,11,11,122,00,13,40,153,40,25,44,084,31*76
$GPGSV,3,3,11,28,54,255,47,43,00,000,00,44,00,000,00*44
$PGRME,7.6,M,12.0,M,14.2,M*2B
$GPRMC,015017.8,A,3414.45645,N,11831.77475,W,000.06,268.0,210509,013.6,E,A*24
$GPGGA,015017.8,3414.45645,N,11831.77475,W,1,05,2.3,246.2,M,-31.7,M,,*62
$GPGSA,A,3,,,07,08,10,,,25,28,,,,3.6,2.3,2.7*30
$GPGSV,3,1,11,03,11,041,00,06,00,034,00,07,57,059,45,08,56,335,51*7E
$GPGSV,3,2,11,10,19,284,40,11,11,122,00,13,40,153,40,25,44,084,31*76
$GPGSV,3,3,11,28,54,255,47,43,00,000,00,44,00,000,00*44
$PGRME,7.6,M,12.0,M,14.2,M*2B
$GPRMC,015018.0,A,3414.45644,N,11831.77475,W,000.05,268.0,210509,013.6,E,A*21
$GPGGA,015018.0,3414.45644,N,11831.77475,W,1,05,2.3,246.1,M,-31.7,M,,*67
$GPGSA,A,3,,,07,08,10,,,25,28,,,,3.6,2.3,2.7*30
$GPGSV,3,1,11,03,11,041,00,06,00,034,00,07,57,059,45,08,56,3ªbªŠRº*5
‰uMY±3,2,11,10,19,284,40,11,11,122,00,13,40,153,40,25,44,084,31*76
$GPGSV,3,3,11,28,54,255,47,43,00,000,00,44,00,000,00*44
$PGRME,7.6,M,12.0,M,14.2,M*2B
$GPRMC,015018.2,A,3414.45644,N,11831.77475,W,000.10,268.0,210509,013.6,E,A*27
$GPGGA,015018.2,3414.45644,N,11831.77475,W,1,05,2.3,246.0,M,-31.7,M,,*64
$GPGSA,A,3,,,07,08,10,,,25,28,,,,3.6,2.3,2.7*30
$GPGSV,3,1,11,03,11,041,00,06,00,034,00,07,57,059,45,08,56,335,51*7E
$GPGSV,3,2,11,10,19,284,40,11,11,122,00,13,40,153,41,25,44,084,00*75
$GPGSV,3,3,11,28,54,255,47,43,00,000,00,44,00,000,00*44
$PGRME,7.6,M,12.0,M,14.2,M*2B
$GPRMC,015018.4,A,3414.45644,N,11831.77475,W,000.05,268.0,210509,013.6,E,A*25
$GPGGA,015018.4,3414.45644,N,11831.77475,W,1,05,2.3,245.9,M,-31.7,M,,*68
$GPGSA,A,3,,,07,08,10,,,25,28,,,,3.6,2.3,2.7*30
$GPGSV,3,1,11,03,11,041,00,06,00,034,00,07,57,059,45,08,56,335,51*7E
$GPGSV,3,2,11,10,19,284,40,11,11,122,00,13,40,153,41,25,44,084,00*75
$GPGSV,3,3,11,28,54,255,47,43,00,000,00,44,00,000,00*44
$PGRME,7.6,M,12.0,M,14.2,M*2B
$GPRMC,015018.6,A,3414.45644,N,11831.77475,W,000.07,268.0,210509,013.6,E,A*25
$GPGGA,015018.6,3414.45644,N,11831.77475,W,1,05,2.3,245.8,M,-31.7,M,,*6B
$GPGSA,A,3,,,07,08,10,,,25,28,,,,3.6,2.3,2.7*30
$GPGSV,3,1,11,03,11,041,00,06,00,034,00,07,57,059,45,08,56,335,51*7E
$GPGSV,3,2,11,10,19,284,39,11,11,122,00,13,40,153,41,25,44,084,00*7B
$GPGSV,3,3,11,28,54,255,47,43,00,000,00,44,00,000,00*44
$PGRME,7.6,M,12.0,M,14.2,M*2B
$GPRMC,015018.8,A,3414.45644,N,11831.77476,W,000.15,268.0,210509,013.6,E,A*2B
$GPGGA,015019.0,3414.45644,N,11831.77476,W,1,05,2.3,245.7,M,-31.7,M,,*60
$GPGSA,A,3,,,07,08,10,,,25,28,,,,3.6,2.3,2.7*30
$GPGSV,3,1,11,03,11,041,00,06,00,034,00,07,57,059,45,08,56,335,51*7E
$GPGSV,3,2,11,10,19,284,39,11,11,122,00,13,40,153,41,25,44,084,00*7B
$GPGSV,3,3,11,28,54,255,47,43,00,000,00,44,00,000,00*44
$PGRME,7.6,M,12.0,M,14.2,M*2B
$GPRMC,015019.0,A,3414.45644,N,11831.77476,W,000.05,268.0,210509,013.6,E,A*23
$GPGGA,015019.2,3414.45644,N,11831.77476,W,1,05,2.3,245.6,M,-31.7,M,,*63
$GPGSA,A,3,,,07,08,10,,,25,28,,,,3.6,2.3,2.7*30
$GPGSV,3,1,11,03,11,041,00,06,00,034,00,07,57,059,45,08,56,335,51*7E
$GPGSV,3,2,11,10,19,284,39,11,11,122,00,13,40,153,42,25,44,084,00*78
$GPGSV,3,3,11,28,54,255,47,43,00,000,00,44,00,000,00*44
$PGRME,7.6,M,12.0,M,14.2,M*2B
$GPRMC,015019.4,A,3414.45644,N,11831.77476,W,000.07,268.0,210509,013.6,E,A*25
$GPGGA,015019.4,3414.45644,N,11831.77476,W,1,05,2.3,245.5,M,-31.7,M,,*66
$GPGSA,A,3,,,07,08,10,,,25,28,,,,3.6,2.3,2.7*30
$GPGSV,3,1,11,03,11,041,00,06,00,034,00,07,57,059,45,08,56,335,51*7E
$GPGSV,3,2,11,10,19,284,39,11,11,122,00,13,40,153,41,25,44,084,00*7B
$GPGSV,3,3,11,28,54,255,47,43,00,000,00,44,00,000,00*44
$PGRME,7.6,M,12.0,M,14.2,M*2B
$GPRMC,015019.6,A,3414.45644,N,11831.77476,W,000.09,268.0,210509,013.6,E,A*29
$GPGGA,015019.6,3414.45644,N,11831.77476,W,1,05,2.3,245.4,M,-31.7,M,,*65
$GPGSA,A,3,,,07,08,10,,,25,28,,,,3.6,2.3,2.7*30
$GPGSV,3,1,11,03,11,041,00,06,00,034,00,07,57,059,45,08,56,335,51*7E
$GPGSV,3,2,11,10,19,284,39,11,11,122,00,13,40,153,41,25,44,084,00*7B
$GPGSV,3,3,11,28,54,255,47,43,00,000,00,44,00,000,00*44
$PGRME,7.6,M,12.0,M,14.2,M*2B
$GPRMC,015019.8,A,3414.45644,N,11831.77476,W,000.05,268.0,210509,013.6,E,A*2B
$GPGGA,015019.8,3414.45644,N,11831.77476,W,1,05,2.3,245.3,M,-31.7,M,,*6C
$GPGSA,A,3,,,07,08,10,,,25,28,,,,3.6,2.3,2.7*30
$GPGSV,3,1,11,03,11,041,00,06,00,034,00,07,57,059,45,08,56,335,51*7E
$GPGSV,3,2,11,10,19,284,38,11,11,122,00,13,40,153,41,25,44,084,00*7A
$GPGSV,3,3,11,28,54,255,47,43,00,000,00,44,00,000,00*44
$PGRME,7.6,M,12.0,M,14.2,M*2B
$GPRMC,015020.0,A,3414.45644,N,11831.77476,W,000.07,268.0,210509,013.6,E,A*2B
$GPGGA,015020.0,3414.45644,N,11831.77476,W,1,05,2.3,245.2,M,-31.7,M,,*6F
$GPGSA,A,3,,,07,08,10,,,25,28,,,,3.6,2.3,2.7*30
$GPGSV,3,1,11,03,11,041,00,06,00,034,00,07,57,059,45,08,56,335,51*7E
$GPGSV,3,2,11,10,19,284,38,11,11,122,00,13,40,153,41,25,44,084,00*7A
$GPGSV,3,3,11,28,54,255,47,43,00,000,00,44,00,000,00*44
$PGRME,7.6,M,12.0,M,14.2,M*2B
$GPRMC,015020.2,A,3414.45644,N,11831.77476,W,000.03,268.0,210509,013.6,E,A*2D
$GPGGA,015020.2,3414.45644,N,11831.77476,W,1,05,2.3,245.1,M,-31.7,M,,*6E
$GPGSA,A,3,,,07,08,10,,,25,28,,,,3.6,2.3,2.7*30
$GPGSV,3,1,11,03,11,041,00,06,00,034,00,07,57,059,45,08,56,335,51*7E
$GPGSV,3,2,11,10,19,284,38,11,11,122,00,13,40,153,41,25,44,084,00*7A
$GPGSV,3,3,11,28,54,255,47,43,00,000,00,44,00,000,00*44
$PGRME,7.6,M,12.0,M,14.2,M*2B
$GPRMC,015020.4,A,3414.45644,N,11831.77476,W,000.11,268.0,210509,013.6,E,A*28
$GPGGA,015020.4,3414.45644,N,11831.77476,W,1,05,2.3,245.1,M,-31.7,M,,*68
$GPGSA,A,3,,,07,08,10,,,25,28,,,,3.6,2.3,2.7*30
$GPGSV,3,1,11,03,11,041,00,06,00,034,00,07,57,059,45,08,56,335,51*7E
$GPGSV,3,2,11,10,19,284,38,11,11,122,00,13,40,153,41,25,44,084,35*7C
$GPGSV,3,3,11,28,54,255,47,43,00,000,00,44,00,000,00*44
$PGRME,7.5,M,11.7,M,13.9,M*20
$GPRMC,015020.6,A,3414.45644,N,11831.77477,W,000.08,268.0,210509,013.6,E,A*23
$GPGGA,015020.8,3414.45644,N,11831.77477,W,1,05,2.2,245.1,M,-31.7,M,,*64
$GPGSA,A,3,,,07,08,10,,,25,28,,,,3.5,2.2,2.6*33
$GPGSV,3,1,11,03,11,041,00,06,00,034,00,07,57,059,45,08,56,335,51*7E
$GPGSV,3,2,11,10,19,284,37,11,11,122,00,13,40,153,41,25,44,084,35*73
$GPGSV,3,3,11,28,54,255,47,43,00,000,00,44,00,000,00*44
$PGRME,7.5,M,11.7,M,13.9,M*20
$GPRMC,015020.8,A,3414.45644,N,11831.77477,W,000.16,268.0,210509,013.6,E,A*22
$GPGGA,015021.0,3414.45644,N,11831.77477,W,1,05,2.2,245.1,M,-31.7,M,,*6D
$GPGSA,A,3,,,07,08,10,,,25,28,,,,3.5,2.2,2.6*33
$GPGSV,3,1,11,03,11,041,00,06,00,034,00,07,57,059,45,08,56,335,52*7D
$GPGSV,3,2,11,10,19,284,37,11,11,122,00,13,40,153,41,25,44,084,35*73
$GPGSV,3,3,11,28,54,255,47,43,00,000,00,44,00,000,00*44
$PGRME,7.5,M,11.7,M,13.9,M*20
$GPRMC,015021.2,A,3414.45644,N,11831.77477,W,000.10,268.0,210509,013.6,E,A*2F
$GPGGA,015021.2,3414.45644,N,11831.77477,W,1,05,2.2,245.1,M,-31.7,M,,*6F
$GPGSA,A,3,,,07,08,10,,,25,28,,,,3.5,2.2,2.6*33
$GPGSV,3,1,11,03,11,041,00,06,00,034,00,07,57,059,45,08,56,335,52*7D
$GPGSV,3,2,11,10,19,284,37,11,11,122,00,13,40,153,41,25,44,084,36*70
$GPGSV,3,3,11,28,54,255,47,43,00,000,00,44,00,000,00*44
$PGRME,7.5,M,11.7,M,13.9,M*20
$GPRMC,015021.4,A,3414.45644,N,11831.77477,W,000.06,268.0,210509,013.6,E,A*2E
$GPGGA,015021.4,3414.45644,N,11831.77477,W,1,05,2.2,245.0,M,-31.7,M,,*68
$GPGSA,A,3,,,07,08,10,,,25,28,,,,3.5,2.2,2.6*33
$GPGSV,3,1,11,03,11,041,00,06,00,034,00,07,57,059,45,08,56,335,51*7E
$GPGSV,3,2,11,10,19,284,36,11,11,122,00,13,40,153,41,25,44,084,36*71
$GPGSV,3,3,11,28,54,255,47,43,00,000,00,44,00,000,00*44
$PGRME,7.5,M,11.7,M,13.9,M*20
$GPRMC,015021.6,A,3414.45644,N,11831.77477,W,000.21,268.0,210509,013.6,E,A*29
$GPGGA,015021.6,3414.45644,N,11831.77477,W,1,05,2.2,245.0,M,-31.7,M,,*6A
$GPGSA,A,3,,,07,08,10,,,25,28,,,,3.5,2.2,2.6*33
$GPGSV,3,1,11,03,11,041,00,06,00,034,00,07,57,059,45,08,56,335,51*7E
$GPGSV,3,2,11,10,19,284,36,11,11,122,00,13,40,153,41,25,44,084,36*71
$GPGSV,3,3,11,28,54,255,47,43,00,000,00,44,00,000,00*44
$PGRME,7.5,M,11.7,M,13.9,M*20
$GPRMC,015021.8,A,3414.45644,N,11831.77477,W,000.17,268.0,210509,013.6,E,A*22
$GPGGA,015021.8,3414.45644,N,11831.77477,W,1,05,2.3,244.9,M,-31.7,M,,*6D
$GPGSA,A,3,,,07,08,10,,,25,28,,,,3.6,2.3,2.7*30
$GPGSV,3,1,11,03,11,041,00,06,00,034,00,07,57,059,45,08,56,335,51*7E
$GPGSV,3,2,11,10,19,284,36,11,11,122,00,13,40,153,41,25,44,084,36*71
$GPGSV,3,3,11,28,54,255,47,43,00,000,00,44,00,000,00*44
$PGRME,7.6,M,12.0,M,14.2,M*2B
$GPRMC,015022.0,A,3414.45644,N,11831.77477,W,000.08,268.0,210509,013.6,E,A*27
$GPGGA,015022.0,3414.45644,N,11831.77477,W,1,05,2.3,244.8,M,-31.7,M,,*67
$GPGSA,A,3,,,07,08,10,,,25,28,,,,3.6,2.3,2.7*30
$GPGSV,3,1,11,03,11,041,00,06,00,034,00,07,57,059,45,08,56,335,51*7E
$GPGSV,3,2,11,10,19,284,36,11,11,122,00,13,40,153,41,25,44,084,35*72
$GPGSV,3,3,11,28,54,255,47,43,00,000,00,44,00,000,00*44
$PGRME,7.6,M,12.0,M,14.2,M*2B
$GPRMC,015022.2,A,3414.45644,N,11831.77478,W,000.15,268.0,210509,013.6,E,A*26
$GPGGA,015022.2,3414.45644,N,11831.77478,W,1,05,2.3,244.7,M,-31.7,M,,*65
$GPGSA,A,3,,,07,08,10,,,25,28,,,,3.6,2.3,2.7*30
$GPGSV,3,1,11,03,11,041,00,06,00,034,00,07,57,059,45,08,56,335,51*7E
$GPGSV,3,2,11,10,19,284,36,11,11,122,00,13,40,153,41,25,44,084,34*73
$GPGSV,3,3,11,28,54,255,47,43,00,000,00,44,00,000,00*44
$PGRME,7.6,M,12.0,M,14.2,M*2B
$GPRMC,015022.4,A,3414.45644,N,11831.77478,W,000.09,268.0,210509,013.6,E,A*2D
$GPGGA,015022.6,3414.45644,N,11831.77478,W,1,05,2.3,244.6,M,-31.7,M,,*60
$GPGSA,A,3,,,07,08,10,,,25,28,,,,3.6,2.3,2.7*30
$GPGSV,3,1,11,03,11,041,00,06,00,034,00,07,57,059,45,08,56,335,51*7E
$GPGSV,3,2,11,10,19,284,36,11,11,122,00,13,40,153,41,25,44,084,34*73
$GPGSV,3,3,11,28,54,255,47,43,44,00,000,00*44
$PGRME,7.6,M,12.0,M,14.2,M*2B
$GPRMC,015022.6,A,3414.45644,N,11831.77478,W,000.03,268.0,210509,013.6,E,A*25
$GPGGA,015022.8,3414.45644,N,11831.77478,W,1,05,2.3,244.5,M,-31.7,M,,*6D
$GPGSA,A,3,,,07,08,10,,,25,28,,,,3.6,2.3,2.7*30
$GPGSV,3,1,11,03,11,041,00,06,00,034,00,07,57,059,45,08,56,335,51*7E
$GPGSV,3,2,11,10,19,284,36,11,11,122,00,13,40,153,41,25,44,084,34*73
$GPGSV,3,3,11,28,54,255,47,43,00,000,00,44,00,000,00*44
$PGRME,7.6,M,12.0,M,14.2,M*2B
$GPRMC,015023.0,A,3414.45644,N,11831.77478,W,000.12,268.0,210509,013.6,E,A*22
$GPGGA,015023.0,3414.45644,N,11831.77478,W,1,05,2.3,244.5,M,-31.7,M,,*64
$GPGSA,A,3,,,07,08,10,,,25,28,,,,3.6,2.3,2.7*30
$GPGSV,3,1,11,03,11,041,00,06,00,034,00,07,57,059,45,08,56,335,51*7E
$GPGSV,3,2,11,10,19,284,36,11,11,122,00,13,40,153,41,25,44,084,34*73
$GPGSV,3,3,11,28,54,255,47,43,00,000,00,44,00,000,00*44
$PGRME,7.6,M,12.0,M,14.2,M*2B
$GPRMC,015023.2,A,3414.45644,N,11831.77478,W,000.08,268.0,210509,013.6,E,A*2B
$GPGGA,015023.2,3414.45644,N,11831.77478,W,1,05,2.3,244.3,M,-31.7,M,,*60
$GPGSA,A,3,,,07,08,10,,,25,28,,,,3.6,2.3,2.7*30
$GPGSV,3,1,11,03,11,041,00,06,00,034,00,07,57,059,45,08,56,335,51*7E
$GPGSV,3,2,11,10,19,284,36,11,11,122,00,13,40,153,41,25,44,084,33*74
$GPGSV,3,3,11,28,54,255,47,43,00,000,00,44,00,000,00*44
$PGRME,7.6,M,12.0,M,14.2,M*2B
$GPRMC,015023.4,A,3414.45644,N,11831.77478,W,000.07,268.0,210509,013.6,E,A*22
$GPGGA,015023.4,3414.45644,N,11831.77478,W,1,05,2.3,244.2,M,-31.7,M,,*67
$GPGSA,A,3,,,07,08,10,,,25,28,,,,3.6,2.3,2.7*30
$GPGSV,3,1,11,03,11,041,00,06,00,034,00,07,57,059,45,08,56,335,51*7E
$GPGSV,3,2,11,10,19,284,36,11,11,122,00,13,40,153,41,25,44,084,33*74
$GPGSV,3,3,11,28,54,255,47,43,00,000,00,44,00,000,00*44
$PGRME,7.6,M,12.0,M,14.2,M*2B
$GPRMC,015023.6,A,3414.45644,N,11831.77478,W,000.03,268.0,210509,013.6,E,A*24
$GPGGA,015023.6,3414.45644,N,11831.77478,W,1,05,2.3,244.1,M,-31.7,M,,*66
$GPGSA,A,3,,,07,08,10,,,25,28,,,,3.6,2.3,2.7*30
$GPGSV,3,1,11,03,11,041,00,06,00,034,00,07,57,059,45,08,56,335,51*7E
$GPGSV,3,2,11,10,19,284,36,11,11,122,00,13,40,153,41,25,44,084,33*74
$GPGSV,3,3,11,28,54,255,47,43,00,000,00,44,00,000,00*44
$PGRME,7.6,M,12.0,M,14.2,M*2B
$GPRMC,015023.8,A,3414.45644,N,11831.77478,W,000.02,268.0,210509,013.6,E,A*2B
$GPGGA,015023.8,3414.45644,N,11831.77478,W,1,05,2.3,244.1,M,-31.7,M,,*68
$GPGSA,A,3,,,07,08,10,,,25,28,,,,3.6,2.3,2.7*30
$GPGSV,3,1,11,03,11,041,00,06,00,034,00,07,57,059,45,08,56,335,51*7E
$GPGSV,3,2,11,10,19,284,36,11,11,122,00,13,40,153,41,25,44,084,33*74
$GPGSV,3,3,11,28,54,255,47,43,00,000,00,44,00,000,00*44
$PGRME,7.6,M,12.0,M,14.2,M*2B
$GPRMC,015024.0,A,3414.45644,N,11831.77479,W,000.06,268.0,210509,013.6,E,A*21
$GPGGA,015024.0,3414.45644,N,11831.77479,W,1,05,2.3,244.0,M,-31.7,M,,*67
$GPGSA,A,3,,,07,08,10,,,25,28,,,,3.6,2.3,2.7*30
$GPGSV,3,1,11,03,11,041,00,06,00,034,00,07,57,059,45,08,56,335,51*7E
$GPGSV,3,2,11,10,19,284,37,11,11,122,00,13,40,153,41,25,44,084,34*72
$GPGSV,3,3,11,28,54,255,47,43,00,000,00,44,00,000,00*44
$PGRME,7.6,M,12.0,M,14.2,M*2B
$GPRMC,015024.2,A,3414.45644,N,11831.77479,W,000.03,268.0,210509,013.6,E,A*26
$GPGGA,015024.4,3414.45644,N,11831.77479,W,1,05,2.3,243.9,M,-31.7,M,,*6D
$GPGSA,A,3,,,07,08,10,,,25,28,,,,3.6,2.3,2.7*30
$GPGSV,3,1,11,03,11,041,00,06,00,034,00,07,57,059,45,08,56,335,51*7E
$GPGSV,3,2,11,10,19,284,37,11,11,122,00,13,40,153,41,25,44,084,35*73
$GPGSV,3,3,11,28,54,255,47,43,00,000,00,44,00,000,00*44
$PGRME,7.5,M,11.7,M,13.9,M*20
$GPRMC,015024.6,A,3414.45644,N,11831.77479,W,000.03,268.0,210509,013.6,E,A*22
$GPGGA,015024.6,3414.45644,N,11831.77479,W,1,05,2.2,243.8,M,-31.7,M,,*6F
$GPGSA,A,3,,,07,08,10,,,25,28,,,,3.5,2.2,2.6*33
$GPGSV,3,1,11,03,11,041,00,06,00,034,00,07,57,059,45,08,56,335,51*7E
$GPGSV,3,2,11,10,19,284,37,11,11,122,00,13,40,153,41,25,44,084,36*70
$GPGSV,3,3,11,28,54,255,47,43,00,000,00,44,00,000,00*44
$PGRME,7.5,M,11.7,M,13.9,M*20
$GPRMC,015024.8,A,3414.45644,N,11831.77479,W,000.03,268.0,210509,013.6,E,A*2C
$GPGGA,015024.8,34¢r¢ª²¢¢brKLLšŠrºº¢ºÊbº±1,05,2.2,243.8,M,-31.7,M,,*61
$GPGSA,A,3,,,07,08,10,,,25,28,,,,3.5,2.2,2.6*33
$GPGSV,3,1,11,03,11,041,00,06,00,034,00,07,57,059,45,08,56,335,51*7E
$GPGSV,3,2,11,10,19,284,37,11,11,122,00,13,40,153,41,25,44,084,36*70
$GPGSV,3,3,11,28,54,255,47,43,00,000,00,44,00,000,00*44
$PGRME,7.5,M,11.7,M,13.9,M*20
$GPRMC,015025.0,A,3414.45644,N,11831.77479,W,000.07,268.0,210509,013.6,E,A*21
$GPGGA,015025.0,3414.45644,N,11831.77479,W,1,05,2.2,243.6,M,-31.7,M,,*66
$GPGSA,A,3,,,07,08,10,,,25,28,,,,3.5,2.2,2.6*33
$GPGSV,3,1,11,03,11,041,00,06,00,034,00,07,57,059,45,08,56,335,51*7E
$GPGSV,3,2,11,10,19,284,37,11,11,122,00,13,40,153,41,25,44,084,36*70
$GPGSV,3,3,11,28,54,255,47,43,00,000,00,44,00,000,00*44
$PGRME,7.5,M,11.7,M,13.9,M*20
$GPRMC,015025.2,A,3414.45644,N,11831.77479,W,000.05,268.0,210509,013.6,E,A*21
$GPGGA,015025.2,3414.45644,N,11831.77479,W,1,05,2.2,243.6,M,-31.7,M,,*64
$GPGSA,A,3,,,07,08,10,,,25,28,,,,3.5,2.2,2.6*33
$GPGSV,3,1,11,03,11,041,00,06,00,034,00,07,57,059,45,08,56,335,51*7E
$GPGSV,3,2,11,10,19,284,38,11,11,122,00,13,40,153,41,25,44,084,36*7F
$GPGSV,3,3,11,28,54,255,47,43,00,000,00,44,00,000,00*44
$PGRME,7.5,M,11.7,M,13.9,M*20
$GPRMC,015025.4,A,3414.45644,N,11831.77479,W,000.22,268.0,210509,013.6,E,A*22
$GPGGA,015025.4,3414.45644,N,11831.77479,W,1,05,2.2,243.5,M,-31.7,M,,*61
$GPGSA,A,3,,,07,08,10,,,25,28,,,,3.5,2.2,2.6*33
$GPGSV,3,1,11,03,11,041,00,06,00,034,00,07,57,059,45,08,56,335,51*7E
$GPGSV,3,2,11,10,19,284,38,11,11,122,00,13,40,153,41,25,44,084,36*7F
$GPGSV,3,3,11,28,54,255,47,43,00,000,00,44,00,000,00*44
$PGRME,7.5,M,11.7,M,13.9,M*20
$GPRMC,015025.6,A,3414.45644,N,11831.77479,W,000.10,268.0,210509,013.6,E,A*21
$GPGGA,015025.6,3414.45644,N,11831.77479,W,1,05,2.2,243.5,M,-31.7,M,,*63
$GPGSA,A,3,,,07,08,10,,,25,28,,,,3.5,2.2,2.6*33
$GPGSV,3,1,11,03,11,041,00,06,00,034,00,07,57,059,45,08,56,335,51*7E
$GPGSV,3,2,11,10,19,284,38,11,11,122,00,13,40,153,41,25,44,084,36*7F
$GPGSV,3,3,11,28,54,255,47,43,00,000,00,44,00,000,00*44
$PGRME,7.5,M,11.7,M,13.9,M*20
$GPRMC,015025.8,A,3414.45644,N,11831.77480,W,000.04,268.0,210509,013.6,E,A*2C
$GPGGA,015025.8,3414.45644,N,11831.77480,W,1,05,2.2,243.4,M,-31.7,M,,*6A
$GPGSA,A,3,,,07,08,10,,,25,28,,,,3.5,2.2,2.6*33
$GPGSV,3,1,11,03,11,041,00,06,00,034,00,07,57,059,45,08,56,335,51*7E
$GPGSV,3,2,11,10,19,284,38,11,11,122,00,13,40,153,42,25,44,084,36*7C
$GPGSV,3,3,11,28,54,255,47,43,00,000,00,44,00,000,00*44
$PGRME,7.5,M,11.7,M,13.9,M*20
$GPRMC,015026.0,A,3414.45645,N,11831.77480,W,000.09,268.0,210509,013.6,E,A*2B
$GPGGA,015026.2,3414.45645,N,11831.77480,W,1,05,2.2,243.4,M,-31.7,M,,*62
$GPGSA,A,3,,,07,08,10,,,25,28,,,,3.5,2.2,2.6*33
$GPGSV,3,1,11,03,11,041,00,06,00,034,00,07,57,059,45,08,56,335,51*7E
$GPGSV,3,2,11,10,19,284,38,11,11,122,00,13,40,153,42,25,44,084,36*7C
$GPGSV,3,3,11,28,54,255,48,43,00,000,00,44,00,000,00*4B
$PGRME,7.5,M,11.7,M,13.9,M*20
$GPRMC,015026.4,A,3414.45645,N,11831.77480,W,000.01,268.0,210509,013.6,E,A*27
$GPGGA,015026.4,3414.45645,N,11831.77480,W,1,05,2.2,243.4,M,-31.7,M,,*64
$GPGSA,A,3,,,07,08,10,,,25,28,,,,3.5,2.2,2.6*33
$GPGSV,3,1,11,03,11,041,00,06,00,034,00,07,57,059,45,08,56,335,51*7E
$GPGSV,3,2,11,10,19,284,38,11,11,122,00,13,40,153,41,25,44,084,36*7F
$GPGSV,3,3,11,28,54,255,48,43,00,000,00,44,00,000,00*4B
$PGRME,7.5,M,11.7,M,13.9,M*20
$GPRMC,015026.6,A,3414.45645,N,11831.77480,W,000.07,268.0,210509,013.6,E,A*23
$GPGGA,015026.6,3414.45645,N,11831.77480,W,1,05,2.2,243.3,M,-31.7,M,,*61
$GPGSA,A,3,,,07,08,10,,,25,28,,,,3.5,2.2,2.6*33
$GPGSV,3,1,11,03,11,041,00,06,00,034,00,07,57,059,45,08,56,335,51*7E
$GPGSV,3,2,11,10,19,284,38,11,11,122,00,13,40,153,41,25,44,084,36*7F
$GPGSV,3,3,11,28,54,255,47,43,00,000,00,44,00,000,00*44
$PGRME,7.5,M,11.7,M,13.9,M*20
$GPRMC,015026.8,A,3414.45645,N,11831.77480,W,000.04,268.0,210509,013.6,E,A*2E
$GPGGA,015026.8,3414.45645,N,11831.77480,W,1,05,2.3,243.3,M,-31.7,M,,*6E
$GPGSA,A,3,,,07,08,10,,,25,28,,,,3.6,2.3,2.7*30
$GPGSV,3,1,11,03,11,041,00,06,00,034,00,07,57,059,45,08,56,335,51*7E
$GPGSV,3,2,11,10,19,284,38,11,11,122,00,13,40,153,41,25,44,084,37*7E
$GPGSV,3,3,11,28,54,255,47,43,00,000,00,44,00,000,00*44
$PGRME,7.5,M,11.7,M,13.9,M*20
$GPRMC,015027.0,A,3414.45645,N,11831.77480,W,000.04,268.0,210509,013.6,E,A*27
$GPGGA,015027.0,3414.45645,N,11831.77480,W,1,05,2.3,243.3,M,-31.7,M,,*67
$GPGSA,A,3,,,07,08,10,,,25,28,,,,2.5,2.3,1.0*36
$GPGSV,3,1,11,03,11,041,00,06,00,034,00,07,57,059,45,08,56,335,51*7E
$GPGSV,3,2,11,10,19,284,38,11,11,122,00,13,40,153,41,25,44,084,37*7E
$GPGSV,3,3,11,28,54,255,47,43,00,000,00,44,00,000,00*44
$PGRME,7.5,M,11.3,M,13.7,M*2A
$GPRMC,015027.2,A,3414.45645,N,11831.77481,W,000.14,268.0,210509,013.6,E,A*25
$GPGGA,015027.2,3414.45645,N,11831.77481,W,1,05,2.3,243.3,M,-31.7,M,,*64
$GPGSA,A,3,,,07,08,10,,,25,28,,,,2.5,2.3,1.0*36
$GPGSV,3,1,11,03,11,041,00,06,00,034,00,07,57,059,45,08,56,335,51*7E
$GPGSV,3,2,11,10,19,284,37,11,11,122,00,13,40,153,41,25,44,084,37*71
$GPGSV,3,3,11,28,54,255,47,43,00,000,00,44,00,000,00*44
$PGRME,7.5,M,11.3,M,13.7,M*2A
$GPRMC,015027.4,A,3414.45645,N,11831.77481,W,000.07,268.0,210509,013.6,E,A*21
$GPGGA,015027.4,3414.45645,N,11831.77481,W,1,05,2.3,243.3,M,-31.7,M,,*62
$GPGSA,A,3,,,07,08,10,,,25,28,,,,2.5,2.3,1.0*36
$GPGSV,3,1,11,03,11,041,00,06,00,034,00,07,57,059,45,08,56,335,51*7E
$GPGSV,3,2,11,10,19,284,37,11,11,122,00,13,40,153,41,25,44,084,37*71
$GPGSV,3,3,11,28,54,255,47,43,00,000,00,44,00,000,00*44
$PGRME,7.5,M,11.3,M,13.7,M*2A
$GPRMC,01502.45645,N,11831.77481,W,000.03,268.0,210509,013.6,E,A*27
$GPGGA,015027.8,3414.45645,N,11831.77481,W,1,05,2.3,243.3,M,-31.7,M,,*6E
$GPGSA,A,3,,,07,08,10,,,25,28,,,,2.5,2.3,1.0*36
$GPGSV,3,1,11,03,11,041,00,06,00,034,00,07,57,059,45,08,56,335,51*7E
$GPGSV,3,2,11,10,19,284,38,11,11,122,00,13,40,153,41,25,44,084,36*7F
$GPGSV,3,3,11,28,54,255,47,43,00,000,00,44,00,000,00*44
$PGRME,7.5,M,11.3,M,13.7,M*2A
$GPRMC,015027.8,A,3414.45645,N,11831.77481,W,000.05,268.0,210509,013.6,E,A*2F
$GPGGA,015028.0,3414.45645,N,11831.77481,W,1,05,2.3,243.3,M,-31.7,M,,*69
$GPGSA,A,3,,,07,08,10,,,25,28,,,,2.5,2.3,1.0*36
$GPGSV,3,1,11,03,11,041,00,06,00,034,00,07,57,059,45,08,56,335,51*7E
$GPGSV,3,2,11,10,19,284,38,11,11,122,00,13,40,153,41,25,44,084,36*7F
$GPGSV,3,3,11,28,54,255,47,43,00,000,00,44,00,000,00*44
$PGRME,7.5,M,11.3,M,13.7,M*2A
$GPRMC,015028.2,A,3414.45645,N,11831.77481,W,000.05,268.0,210509,013.6,E,A*2A
$GPGGA,015028.2,3414.45645,N,11831.77481,W,1,05,2.2,243.4,M,-31.7,M,,*6D
$GPGSA,A,3,,,07,08,10,,,25,28,,,,2.6,2.2,1.2*36
$GPGSV,3,1,11,03,11,041,00,06,00,034,00,07,57,059,45,08,56,335,51*7E
$GPGSV,3,2,11,10,19,284,39,11,11,122,00,13,40,153,41,25,44,084,36*7E
$GPGSV,3,3,11,28,54,255,47,43,00,000,00,44,00,000,00*44
$PGRME,7.5,M,11.3,M,13.7,M*2A
$GPRMC,015028.4,A,3414.45646,N,11831.77481,W,000.13,268.0,210509,013.6,E,A*28
$GPGGA,015028.4,3414.45646,N,11831.77481,W,1,06,2.2,243.6,M,-31.7,M,,*69
$GPGSA,A,3,,,07,08,10,,13,25,28,,,,2.6,2.2,1.2*34
$GPGSV,3,1,11,03,11,041,00,06,00,034,00,07,57,059,45,08,56,335,51*7E
$GPGSV,3,2,11,10,19,284,40,11,11,122,00,13,40,153,41,25,44,084,36*70
$GPGSV,3,3,11,28,54,255,47,43,00,000,00,44,00,000,00*44
$PGRME,5.0,M,11.3,M,12.6,M*2D
$GPRMC,015028.6,A,3414.45646,N,11831.77482,W,001.78,354.9,210509,013.6,E,A*22
$GPGGA,015028.6,3414.45646,N,11831.77482,W,1,06,1.4,243.7,M,-31.7,M,,*6C
$GPGSA,A,3,,,07,08,10,,13,25,28,,,,2.6,1.4,1.3*30
$GPGSV,3,1,11,03,11,041,00,06,00,034,00,07,57,059,45,08,56,335,51*7E
$GPGSV,3,2,11,10,19,284,40,11,11,122,00,13,40,153,41,25,44,084,36*70
$GPGSV,3,3,11,28,54,255,47,43,00,000,00,44,00,000,00*44
$PGRME,5.0,M,11.3,M,12.6,M*2D
$GPRMC,015028.8,A,3414.45709,N,11831.77564,W,000.06,354.9,210509,013.6,E,A*27
$GPGGA,015028.8,3414.45709,N,11831.77564,W,1,06,1.4,243.8,M,-31.7,M,,*6E
$GPGSA,A,3,,,07,08,10,,13,25,28,,,,2.6,1.4,1.3*30
$GPGSV,3,1,11,03,11,041,00,06,00,034,00,07,57,059,45,08,56,335,51*7E
$GPGSV,3,2,11,10,19,284,41,11,11,122,00,13,40,153,41,25,44,084,37*70
$GPGSV,3,3,11,28,54,255,47,43,00,000,00,44,00,000,00*44
$PGRME,5.0,M,11.3,M,12.6,M*2D
$GPRMC,015029.0,A,3414.45709,N,11831.77564,W,000.04,354.9,210509,013.6,E,A*2C
$GPGGA,015029.0,3414.45709,N,11831.77564,W,1,06,1.4,243.9,M,-31.7,M,,*66
$GPGSA,A,3,,,07,08,10,,13,25,28,,,,2.6,1.4,1.3*30
$GPGSV,3,1,11